{
"type": "FeatureCollection",
"name": "POI",
"crs": { "type": "name", "properties": { "name": "urn:ogc:def:crs:OGC:1.3:CRS84" } },
"features": [
{ "type": "Feature", "properties": { "Name": "Playa de Estacionamiento", "description": null, "timestamp": null, "begin": null, "end": null, "altitudeMode": null, "tessellate": -1, "extrude": 0, "visibility": -1, "drawOrder": null, "icon": null, "tipo": "poi" }, "geometry": { "type": "Point", "coordinates": [ -69.426902433047985, -32.610286195081677, 0.0 ] } },
{ "type": "Feature", "properties": { "Name": "La Gloria 3.120 mts", "description": null, "timestamp": null, "begin": null, "end": null, "altitudeMode": null, "tessellate": -1, "extrude": 0, "visibility": -1, "drawOrder": null, "icon": null, "tipo": "camp" }, "geometry": { "type": "Point", "coordinates": [ -69.551966707327395, -32.560310775579453, 0.0 ] } },
{ "type": "Feature", "properties": { "Name": "Chacay", "description": null, "timestamp": null, "begin": null, "end": null, "altitudeMode": null, "tessellate": -1, "extrude": 0, "visibility": -1, "drawOrder": null, "icon": null, "tipo": "ref" }, "geometry": { "type": "Point", "coordinates": [ -69.470323557244271, -32.545000515407423, 0.0 ] } },
{ "type": "Feature", "properties": { "Name": "Inicio de huella al Montura", "description": null, "timestamp": null, "begin": null, "end": null, "altitudeMode": null, "tessellate": -1, "extrude": 0, "visibility": -1, "drawOrder": null, "icon": null, "tipo": "poi" }, "geometry": { "type": "Point", "coordinates": [ -69.406634250894285, -32.618138428413133, 0.0 ] } },
{ "type": "Feature", "properties": { "Name": "Agua", "tipo": "agua" }, "geometry": { "type": "Point", "coordinates": [ -69.534589983522892, -32.559037003666162, 3078.244141000000127 ] } }
]
}
